"시설종류",대상시설명,소재지도로명주소,소재지지번주소,위도,경도,관리기관명,관할경찰서명,CCTV설치여부,CCTV설치대수,보호구역도로폭,데이터기준일자
"유치원",우전초등학교병설유치원,전라북도 전주시 완산구 효자동2가 189 우전초등학교병설유치원,전라북도 전주시 완산구 효자동2가 189,35.8056333,127.107150,전라북도 전주시,전주완산경찰서,Y,2,,2018-08-14
"유치원",우성유치원,전라북도 전주시 덕진구 벚꽃로 57 우성유치원,전라북도 전주시 덕진구 진북동 434-225,35.8305981,127.1347965,전라북도 전주시,전주덕진경찰서,Y,2,,2018-08-14
"유치원",우석대부설유치원,전라북도 전주시 완산구 거마남로 71 우석대부설유치원,전라북도 전주시 완산구 삼천동1가637,35.7957274,127.124518,전라북도 전주시,전주완산경찰서,N,,,2018-08-14
"유치원",용흥초등학교병설유치원,전라북도 전주시 완산구 삼천천변 1길 16 용흥초등학교병설유치원,전라북도 전주시 완산구 삼천동1가 765-2,35.7949139,127.1119782,전라북도 전주시,전주완산경찰서,Y,2,,2018-08-14
"유치원",용덕초등학교병설유치원,전라북도 전주시 덕진구 용덕길 30 용덕초등학교,전라북도 전주시 덕진구 용정동 489,35.8766154,127.0515375,전라북도 전주시,전주덕진경찰서,Y,2,,2018-08-14
"유치원",완산초등학교병설유치원,전라북도 전주시 완산구 매곡로 22 완산초등학교병설유치원,전라북도 전주시 완산구 동완산동2가167,35.8102667,127.1435166,전라북도 전주시,전주완산경찰서,Y,2,,2018-08-14
"유치원",올리브유치원,전라북도 전주시 완산구 구이로 2041 올리브유치원,전라북도 전주시 완산구 평화동3가 98-1,35.7803879,127.1292054,전라북도 전주시,전주완산경찰서,N,,,2018-08-14
"유치원",온빛초등학교병설유치원,전라북도 전주시 덕진구 틀못3길 7 온빛초등학교병설유치원,전라북도 전주시 덕진구 장동 1066,35.8424462,127.0567035,전라북도 전주시,전주덕진경찰서,Y,4,,2018-08-14
"유치원",예일킨더유치원,전라북도 전주시 완산구 신촌2길 10 예일킨더유치원,전라북도 전주시 완산구 중화산동2가 401-15,35.8144583,127.1171663,전라북도 전주시,전주완산경찰서,Y,3,,2018-08-14
"유치원",예일유치원,전라북도 전주시 덕진구 한배미5길 12-6 예일유치원,전라북도 전주시 덕진구 인후동1가 943-7,35.8241243,127.1670757,전라북도 전주시,전주덕진경찰서,Y,2,,2018-08-14
"유치원",예랑유치원,전라북도 전주시 완산구 백제대로 20-14 예랑어린이집,전라북도 전주시 완산구 평화동1가 599-4,35.7972607,127.1324797,전라북도 전주시,전주완산경찰서,Y,2,,2018-08-14
"유치원",예대유치원,전라북도 전주시 완산구 평화14길 27-33 예대유치원,전라북도 전주시 완산구 평화동2가 858-5,35.7918357,127.1348336,전라북도 전주시,전주완산경찰서,Y,1,,2018-08-14
"유치원",연세유치원,전라북도 전주시 완산구 능안자구길 53-9 연세유치원,전라북도 전주시 완산구 삼천동3가 309-8,35.8068609,127.0849368,전라북도 전주시,전주완산경찰서,N,,,2018-08-14
"유치원",여울초등학교병설유치원,전라북도 전주시 완산구 고사평8길 11 여울초등학교,전라북도 전주시 완산구 서신동 923,35.8375375,127.1113853,전라북도 전주시,전주완산경찰서,Y,2,,2018-08-14
"유치원",엔젤유치원,전라북도 전주시 완산구 용머리로 9-40 효자롯데아파트,전라북도 전주시 완산구 효자동1가 414,35.8081477,127.1121135,전라북도 전주시,전주완산경찰서,Y,3,,2018-08-14
"유치원",엄마랑유치원,전라북도 전주시 덕진구 도당산4길 53-12 엄마랑유치원,전라북도 전주시 덕진구 우아동3가 750-50,35.8454217,127.1557887,전라북도 전주시,전주덕진경찰서,N,,,2018-08-14
"유치원",양지초등학교병설유치원,전라북도 전주시 완산구 양지2길 11-26 양지초등학교병설유치원,전라북도 전주시 완산구 평화동2가 582,35.7926099,127.1244774,전라북도 전주시,전주완산경찰서,Y,2,,2018-08-14
"유치원",알프스유치원,전라북도 전주시 완산구 견훤로 100-83 알프스유치원,전라북도 전주시 덕진구 중노송동 30-5,35.820890,127.162833,전라북도 전주시,전주완산경찰서,Y,1,,2018-08-14
"유치원",아중초등학교병설유치원,전라북도 전주시 덕진구 인교5길 23 전주아중초등학교,전라북도 전주시 덕진구 우아동2가 888-2,35.828219,127.174894,전라북도 전주시,전주덕진경찰서,Y,2,,2018-08-14
"유치원",아이캔유치원,전라북도 전주시 덕진구 우아로 35 아이캔유치원,전라북도 전주시 덕진구 우아동3가 747-89,35.8505737,127.1551125,전라북도 전주시,전주덕진경찰서,N,,,2018-08-14
"유치원",아이리더유치원,전라북도 전주시 완산구 따박골5길 38 아이리더유치원,전라북도 전주시 완산구 중화산동2가 554-1,35.8092837,127.1275401,전라북도 전주시,전주완산경찰서,Y,3,,2018-08-14
"유치원",송천초등학교병설유치원,전라북도 전주시 덕진구 송천중앙로 99 전주초등학교병설유치원,전라북도 전주시 덕진구 송천동1가 397,35.858089,127.119218,전라북도 전주시,전주덕진경찰서,Y,2,,2018-08-14
"초등학교",팔복초등학교,전라북도 전주시 덕진구 팔과정로 181 전주팔복초등학교,전라북도 전주시 덕진구 동산동 374-1,35.8636606,127.0945566,전라북도 전주시,전주덕진경찰서,Y,2,,2018-08-14
"초등학교",초포초등학교,전라북도 전주시 덕진구 초포로 171 초포초등학교,전라북도 전주시 덕진구 호성동2가 835,35.8771519,127.1398019,전라북도 전주시,전주덕진경찰서,Y,3,,2018-08-14
"초등학교",진북초등학교,전라북도 전주시 덕진구 진북1길 11 진북초등학교,전라북도 전주시 덕진구 진북동2가 1046-1,35.8262464,127.1318905,전라북도 전주시,전주덕진경찰서,Y,6,,2018-08-14
"초등학교",조촌초등학교,전라북도 전주시 덕진구 쪽구름로 39 조촌초등학교,전라북도 전주시 덕진구 여의동 582-2,35.8697071,127.0763125,전라북도 전주시,전주덕진경찰서,Y,10,,2018-08-14
"초등학교",전주북초등학교,전라북도 전주시 덕진구 소리로 180 전주북초등학교,전라북도 전주시 덕진구 호성동1가 736,35.8566789,127.1514388,전라북도 전주시,전주덕진경찰서,Y,11,,2018-08-14
"초등학교",전일초등학교,전라북도 전주시 덕진구 태진로 98 전주전일초등학교,전라북도 전주시 덕진구 진북동2가 382-1,35.829948,127.1369534,전라북도 전주시,전주덕진경찰서,Y,4,,2018-08-14
"초등학교",전라초등학교,전라북도 전주시 덕진구 심방죽로 24 전라초등학교,전라북도 전주시 덕진구 인후동1가 575,35.8391654,127.1521625,전라북도 전주시,전주덕진경찰서,Y,10,,2018-08-14
"초등학교",장동초등학교,전라북도 전주시 덕진구 원장동안길 73 장동초등학교,전라북도 전주시 덕진구 장동 258-2,35.849328,127.0601727,전라북도 전주시,전주덕진경찰서,Y,2,,2018-08-14
"초등학교",인후초등학교,전라북도 전주시 덕진구 무삼지로 67 인후초등학교,전라북도 전주시 덕진구 인후동3가 160,35.8317482,127.1624884,전라북도 전주시,전주덕진경찰서,Y,5,,2018-08-14
"초등학교",인봉초등학교,전라북도 전주시 덕진구 무삼지로 7 인봉초등학교,전라북도 전주시 덕진구 인후동1가 917,35.8269357,127.1650625,전라북도 전주시,전주덕진경찰서,Y,8,,2018-08-14
"초등학교",원동초등학교,전라북도 전주시 덕진구 원동로 3 전주원동초등학교,전라북도 전주시 덕진구 원동 361-1,35.851344,127.0334127,전라북도 전주시,전주덕진경찰서,Y,2,,2018-08-14
"초등학교",용소초등학교,전라북도 전주시 덕진구 송천4길 38 전주용소초등학교,전라북도 전주시 덕진구 송천동1가 1,35.8622737,127.1177625,전라북도 전주시,전주덕진경찰서,Y,6,,2018-08-14
"초등학교",용덕초등학교,전라북도 전주시 덕진구 용덕길 30 용덕초등학교,전라북도 전주시 덕진구 용정동 489,35.8767063,127.0514732,전라북도 전주시,전주덕진경찰서,Y,4,,2018-08-14
"초등학교",오송초등학교,전라북도 전주시 덕진구 천마산로 87 오송초등학교,전라북도 전주시 덕진구 송천동2가 송북길 205,35.8660379,127.130395,전라북도 전주시,전주덕진경찰서,Y,4,,2018-08-14
"초등학교",아중초등학교,전라북도 전주시 덕진구 인교5길 23 전주아중초등학교,전라북도 전주시 덕진구 우아동2가 888-2,35.8281739,127.1755623,전라북도 전주시,전주덕진경찰서,Y,6,,2018-08-14
"초등학교",신동초등학교,전라북도 전주시 덕진구 솔내로 211 전주신동초등학교,전라북도 전주시 덕진구 송천동2가 126-8,35.8690129,127.1266156,전라북도 전주시,전주덕진경찰서,Y,6,,2018-08-14
"초등학교",송천초등학교,전라북도 전주시 덕진구 송천1길 10 전주송천초등학교,전라북도 전주시 덕진구 송천동1가 397,35.8578449,127.1198293,전라북도 전주시,전주덕진경찰서,Y,4,,2018-08-14
"초등학교",송원초등학교,전라북도 전주시 덕진구 와룡로 25 전주송원초등학교,전라북도 전주시 덕진구 송천동2가 602,35.8621277,127.1115189,전라북도 전주시,전주덕진경찰서,Y,6,,2018-08-14
"초등학교",송북초등학교,전라북도 전주시 덕진구 천마산로 16 송북초등학교,전라북도 전주시 덕진구 송천동1가 107-1,35.8633695,127.1241538,전라북도 전주시,전주덕진경찰서,Y,6,,2018-08-14
"초등학교",북일초등학교,전라북도 전주시 덕진구 견훤로 336 전주북일초등학교,전라북도 전주시 덕진구 인후동1가 750,35.8423553,127.1554888,전라북도 전주시,전주덕진경찰서,Y,7,,2018-08-14
"초등학교",반월초등학교,전라북도 전주시 덕진구 혁신로 707 전주반월초등학교,전라북도 전주시 덕진구 반월동 234-4,35.8752987,127.073675,전라북도 전주시,전주덕진경찰서,Y,6,,2018-08-14
"초등학교",미산초등학교,전라북도 전주시 덕진구 전미로 160 미산초등학교,전라북도 전주시 덕진구 전미동2가 351,35.8838022,127.1097875,전라북도 전주시,전주덕진경찰서,Y,3,,2018-08-14
"초등학교",만수초등학교,전라북도 전주시 덕진구 호성로 130 전주만수초등학교,전라북도 전주시 덕진구 호성동1가 829-2,35.8626941,127.1475495,전라북도 전주시,전주덕진경찰서,Y,8,,2018-08-14
"초등학교",동신초등학교,전라북도 전주시 덕진구 우아9길 1 전주동신초등학교,전라북도 전주시 덕진구 우아3가 743-149,35.8517961,127.156251,전라북도 전주시,전주덕진경찰서,Y,10,,2018-08-14
"초등학교",동북초등학교,전라북도 전주시 덕진구 견훤왕궁로 227 전주동북초등학교,전라북도 전주시 덕진구 인후동2가 39-12,35.8394387,127.1450399,전라북도 전주시,전주덕진경찰서,Y,8,,2018-08-14
"초등학교",덕진초등학교,전라북도 전주시 덕진구 들사평로 61 전주덕진초등학교,전라북도 전주시 덕진구 덕진동1가 1272,35.8417321,127.124250,전라북도 전주시,전주덕진경찰서,Y,8,,2018-08-14
"초등학교",덕일초등학교,전라북도 전주시 덕진구 하가로 71 덕일초등학교,전라북도 전주시 덕진구 덕진동2가 99-1,35.8486071,127.1121699,전라북도 전주시,전주덕진경찰서,Y,6,,2018-08-14
"초등학교",기린초등학교,전라북도 전주시 덕진구 견훤로 260 전주기린초등학교,전라북도 전주시 덕진구 인후동1가 431-3,35.8350187,127.159186,전라북도 전주시,전주덕진경찰서,Y,7,,2018-08-14
"초등학교",금평초등학교,전라북도 전주시 덕진구 명주3길 16 금평초등학교,전라북도 전주시 덕진구 인후동2가 1536,35.8439633,127.1471271,전라북도 전주시,전주덕진경찰서,Y,12,,2018-08-14
"초등학교",금암초등학교,전라북도 전주시 덕진구 권삼득로 210 전주금암초등학교,전라북도 전주시 덕진구 금암동1가 525-1,35.8375922,127.1366058,전라북도 전주시,전주덕진경찰서,Y,7,,2018-08-14
"어린이집",해맑은어린이집,전라북도 전주시 완산구 안행8길 30 해맑은어린이집,전라북도 전주시 완산구 삼천동1가 752-4,35.8001944,127.132323,전라북도 전주시,전주완산경찰서,Y,3,,2018-08-14
"어린이집",한국어린이집,전라북도 전주시 완산구 용산마을길 35 한국웅변재능어린이집,전라북도 전주시 완산구 삼천동2가 203-8,35.7931107,127.1028326,전라북도 전주시,전주완산경찰서,N,,,2018-08-14
"어린이집",하나캐슬어린이집,전라북도 전주시 완산구 장승배기로 46-10  하나캐슬어린이집,전라북도 전주시 완산구 삼천동1가 306-20,35.7916667,127.118075,전라북도 전주시,전주완산경찰서,Y,2,,2018-08-14
"어린이집",폴어린이집,전라북도 전주시 완산구 평화2길 12 폴어린이집,전라북도 전주시 완산구 평화동2가 96-3,35.7818211,127.1340799,전라북도 전주시,전주완산경찰서,Y,2,,2018-08-14
"어린이집",평화피노키오어린이집,전라북도 전주시 완산구 평화5길 24-21 피노키오어린이집,전라북도 전주시 완산구 평화동2가 134-3,35.7843336,127.1362158,전라북도 전주시,전주완산경찰서,Y,2,,2018-08-14
"어린이집",키즈캠어린이집,전라북도 전주시 완산구 평화11길 6-3 키즈캠어린이집,전라북도 전주시 완산구 평화동2가 873-4,35.789312,127.136078,전라북도 전주시,전주완산경찰서,N,,,2018-08-14
"어린이집",중산어린이집,전라북도 전주시 완산구 서원로 334 중산어린이집,전라북도 전주시 완산구 중화산동1가 256-1,35.812025,127.1305125,전라북도 전주시,전주완산경찰서,Y,3,,2018-08-14
"어린이집",전주효자어린이집,전라북도 전주시 완산구 밤나무1길 15-7 효자어린이집,전라북도 전주시 완산구 효자동1가 383-6,35.8086339,127.1167309,전라북도 전주시,전주완산경찰서,N,,,2018-08-14
"어린이집",전주삼성어린이집,전라북도 전주시 완산구 권삼득로 20 전주삼성어린이집,전라북도 전주시 완산구 중노송동 579-5,35.8247323,127.1498773,전라북도 전주시,전주완산경찰서,Y,1,,2018-08-14
"어린이집",위즈어린이집,전라북도 전주시 완산구 쑥고개로 196-32 WIZ어린이집,전라북도 전주시 완산구 삼천동1가 277-6,35.795658,127.088463,전라북도 전주시,전주완산경찰서,N,,,2018-08-14
"어린이집",우석어린이집,전라북도 전주시 완산구 상거마4길 9 우석어린이집,전라북도 전주시 완산구 삼천동1가 615-3,35.797108,127.1202538,전라북도 전주시,전주완산경찰서,Y,2,,2018-08-14
"어린이집",오렌지어린이집,전라북도 전주시 완산구 전룡로 132-8 오렌지어린이집,전라북도 전주시 완산구 서신동 6-11,35.8288142,127.1271625,전라북도 전주시,전주완산경찰서,Y,2,,2018-08-14
"어린이집",예찬어린이집,전라북도 전주시 완산구 안행2길 33-3 예찬어린이집,전라북도 전주시 완산구 삼천동1가 734-14,35.8012684,127.128555,전라북도 전주시,전주완산경찰서,Y,2,,2018-08-14
"어린이집",영생성품체능어린이집,전라북도 전주시 완산구 삼천천변3길 60 C동 영생성품체능어린이집,전라북도 전주시 완산구 삼천동1가 287-11,35.7977894,127.1163207,전라북도 전주시,전주완산경찰서,Y,2,,2018-08-14
"어린이집",열린생각어린이집,전라북도 전주시 완산구 원서곡길 8 열린생각어린이집,전라북도 전주시 완산구 효자동3가 781-1,35.8358465,127.0972945,전라북도 전주시,전주완산경찰서,Y,2,,2018-08-14
"어린이집",알프스어린이집,전라북도 전주시 완산구 견훤로 100 알프스어린이집,전라북도 전주시 완산구 중노송동 26-1,35.8203423,127.1630551,전라북도 전주시,전주완산경찰서,Y,2,,2018-08-14
"어린이집",아이들세상어린이집,전라북도 전주시 완산구 평화로 71 아이들세상,전라북도 전주시 완산구 평화동2가 909-2,35.7832209,127.1332175,전라북도 전주시,전주완산경찰서,Y,3,,2018-08-14
"어린이집",서곡해뜰어린이집,전라북도 전주시 완산구 원서곡길 54-1 서곡해뜰어린이집,전라북도 전주시 완산구 효자3가 960,35.8326368,127.093997,전라북도 전주시,전주완산경찰서,Y,2,,2018-08-14
"어린이집",명재어린이집,전라북도 전주시 완산구 삼천천변2길 36-3 명재어린이집,전라북도 전주시 완산구 삼천동1가 289-13,35.796207,127.114128,전라북도 전주시,전주완산경찰서,N,,,2018-08-14
"어린이집",꿈사랑어린이나라어린이집,전라북도 전주시 완산구 화산천변3길 15-5 꿈사랑어린이나라,전라북도 전주시 완산구 중화산동2가 763-2,35.8200741,127.1146869,전라북도 전주시,전주완산경찰서,Y,3,,2018-08-14
"어린이집",굿모닝어린이집,전라북도 전주시 완산구 소대배기로 18-28 굿모닝어린이집,전라북도 전주시 완산구 평화동2가 891-3,35.7867224,127.1315563,전라북도 전주시,전주완산경찰서,N,,,2018-08-14
"어린이집",고감도어린이집,전라북도 전주시 완산구 양지2길 5 고감도어린이집,전라북도 전주시 완산구 평화동2가 570-1,35.7924667,127.1233375,전라북도 전주시,전주완산경찰서,Y,2,,2018-08-14
"유치원",솔밭왓앤와이유치원,전라북도 전주시 완산구 양지2길 52-8 솔밭왓앤와이유치원,전라북도 전주시 완산구 평화동2가 567,35.7906739,127.1208373,전라북도 전주시,전주완산경찰서,N,,,2018-08-14
"유치원",소망유치원,전라북도 전주시 덕진구 반월동 316 소망유치원,전라북도 전주시 덕진구 반월동 316,35.8724261,127.0683088,전라북도 전주시,전주덕진경찰서,Y,3,,2018-08-14
"유치원",성심유치원,전라북도 전주시 완산구 태조로 51 전동성당 성심유치원,전라북도 전주시 완산구 전동 2001-1,35.8138338,127.1498151,전라북도 전주시,전주완산경찰서,N,,,2018-08-14
"유치원",성모유치원,전라북도 전주시 덕진구 기린대로 482 천주교덕진성당,전라북도 전주시 덕진구 덕진동1가 1262-7,35.8429346,127.1257797,전라북도 전주시,전주덕진경찰서,N,,,2018-08-14
"유치원",석정유치원,전라북도 전주시 완산구 메너머3길 40-5 석정유치원,전라북도 전주시 완산구 중화산동 732-7,35.8241818,127.1181803,전라북도 전주시,전주완산경찰서,Y,3,,2018-08-14
"유치원",서천초등학교병설유치원,전라북도 전주시 완산구 당산로 9 전주서천초등학교병설유치원,전라북도 전주시 완산구 서신동761-3,35.8321406,127.1087705,전라북도 전주시,전주완산경찰서,Y,6,,2018-08-14
"유치원",서전주유치원,전라북도 전주시 완산구 난전들로 139-39 서전주유치원,전라북도 전주시 완산구 평화동3가 250-1,35.7806169,127.114061,전라북도 전주시,전주완산경찰서,N,,,2018-08-14
"유치원",서원초등학교병설유치원,전라북도 전주시 완산구 오두정길 45 전주서원초등학교병설유치원,전라북도 전주시 완산구 효자동1가 633,35.8100667,127.1185625,전라북도 전주시,전주완산경찰서,Y,7,,2018-08-14
"초등학교",풍남초등학교,전라북도 전주시 완산구 견훤왕궁로 16 전주풍남초등학교,전라북도 전주시 완산구 남노송동 507-1,35.8222744,127.1535145,전라북도 전주시,전주완산경찰서,Y,7,,2018-08-14
"초등학교",서천초등학교,전라북도 전주시 완산구 당산로 9 전주서천초등학교,전라북도 전주시 완산구 서신동 761-3,35.8323972,127.1085311,전라북도 전주시,전주완산경찰서,Y,6,,2018-08-14
"초등학교",서원초등학교,전라북도 전주시 완산구 오두정길 45 전주서원초등학교,전라북도 전주시 완산구 효자동1가 633,35.8100583,127.1192625,전라북도 전주시,전주완산경찰서,Y,7,,2018-08-14
"초등학교",중산초등학교,전라북도 전주시 완산구 중산로 33 전주중산초등학교,전라북도 전주시 완산구 중화산동 2가 614,35.8173997,127.1197125,전라북도 전주시,전주완산경찰서,Y,8,,2018-08-14
"유치원",삼천초등학교병설유치원,전라북도 전주시 완산구 성지산로 38 전주삼천초등학교병설유치원,전라북도 전주시 완산구 삼천동1가 585-1,35.8006092,127.1231654,전라북도 전주시,전주완산경찰서,Y,6,,2018-08-14
"유치원",뽀뽀뽀유치원,전라북도 전주시 덕진구 거북바우로 40 뽀뽀뽀유치원,전라북도 전주시 덕진구 금암동 102-41,35.8377821,127.1424875,전라북도 전주시,전주덕진경찰서,Y,3,,2018-08-14
"유치원",빛나라유치원,전라북도 전주시 덕진구 호성2길 24-5 빛나라유치원,전라북도 전주시 덕진구 호성동1가 819,35.8595537,127.1511013,전라북도 전주시,전주덕진경찰서,Y,3,,2018-08-14
"어린이집",새나라키즈어린이집,전라북도 전주시 완산구 안터2길 29 새나라어린이집,전라북도 전주시 완산구 서신동 834-1,35.8280567,127.1173852,전라북도 전주시,전주완산경찰서,Y,3,,2018-08-14
"어린이집",상록어린이집,전라북도 전주시 완산구 우전로 251 상록어린이집,전라북도 전주시 완산구 효자2가 662-1,35.817050,127.1013875,전라북도 전주시,전주완산경찰서,N,,,2018-08-14
"어린이집",바울어린이집,전라북도 전주시 완산구 용머리로 228 바울어린이집,전라북도 전주시 완산구 서완산동1가 81-2,35.808400,127.135325,전라북도 전주시,전주완산경찰서,N,,,2018-08-14
"어린이집",미미어린이집,전라북도 전주시 완산구 감나무4길 27 미미어린이집,전라북도 전주시 완산구 서신동 787,35.8314401,127.119714,전라북도 전주시,전주완산경찰서,N,,,2018-08-14
"유치원",비사벌유치원,전라북도 전주시 덕진구 도당산로 48 비사벌유치원,전라북도 전주시 덕진구 우아동3가 473-2,35.8460582,127.1586384,전라북도 전주시,전주덕진경찰서,N,,,2018-08-14
"유치원",북문유치원,전라북도 전주시 덕진구 팔달로 339-43 북문교회,전라북도 전주시 덕진구 진북1동 391-15,35.8310214,127.1373751,전라북도 전주시,전주덕진경찰서,Y,1,,2018-08-14
"유치원",별초롱유치원,전라북도 전주시 덕진구 가재미2길 9-4 별초롱유치원,전라북도 전주시 덕진구 인후동1가 884-10,35.829097,127.1635144,전라북도 전주시,전주덕진경찰서,Y,2,,2018-08-14
"유치원",반월초등학교병설유치원,전라북도 전주시 덕진구 혁신로 707 전주반월초등학교병설유치원,전라북도 전주시 덕진구 반월동 234-4,35.8753583,127.0755659,전라북도 전주시,전주덕진경찰서,Y,6,,2018-08-14
"유치원",민족사관유치원,전라북도 완주군 이서면 갈산안길 18-7 민족사관유치원,전라북도 완주군 이서면 갈산리656-1,35.833892,127.054108,전라북도 전주시,전주완산경찰서,N,,,2018-08-14
"유치원",미산초등학교병설유치원,전라북도 전주시 덕진구 전미로 160 미산초등학교,전라북도 전주시 덕진구 전미동2가 351,35.884151,127.109541,전라북도 전주시,전주덕진경찰서,Y,3,,2018-08-14
"유치원",미래유치원,전라북도 전주시 완산구 서신천변1길 16 미래유치원,전라북도 전주시 완산구 서신동 844-1,35.8266953,127.1135788,전라북도 전주시,전주완산경찰서,Y,3,,2018-08-14
"유치원",문정초등학교병설유치원,전라북도 전주시 완산구 구이로 1979 전주문정초등학교병설유치원,전라북도 전주시 완산구 평화동3가 226,35.7755363,127.1268204,전라북도 전주시,전주완산경찰서,Y,3,,2018-08-14
"유치원",만성초등학교병설유치원,전라북도 전주시 완산구 중동로 32 전주만성초등학교병설유치원,전라북도 전주시 완산구 만성 832,35.8363115,127.065655,전라북도 전주시,전주완산경찰서,Y,6,,2018-08-14
"유치원",리틀하버드유치원,전라북도 전주시 덕진구 숲정이2길 15-1 리틀하버드유치원,전라북도 전주시 덕진구 진북동 834-80,35.8296387,127.1303542,전라북도 전주시,전주덕진경찰서,Y,3,,2018-08-14
"유치원",리딩파크유치선,전라북도 전주시 완산구 서곡로 31 리딩파크유치원,전라북도 전주시 완산구 효자동3가 1473-3,35.8322833,127.0988639,전라북도 전주시,전주완산경찰서,N,,,2018-08-14
"유치원",롯데유치원,전라북도 전주시 완산구 평화16길 9 롯데유치원,전라북도 전주시 완산구 평화동1가 742-10,35.792953,127.1373293,전라북도 전주시,전주완산경찰서,Y,3,,2018-08-14
"유치원",동화유치원,전라북도 전주시 덕진구 한배미6길 26 동화유치원,전라북도 전주시 덕진구 인후동1가 15,35.8227662,127.1681756,전라북도 전주시,전주덕진경찰서,Y,3,,2018-08-14
"유치원",서신초등학교병설유치원,전라북도 전주시 완산구 전룡로 119 전주서신초등학교병설유치원,전라북도 전주시 완산구 서신동 31,35.829925,127.124800,전라북도 전주시,전주완산경찰서,Y,7,,2018-08-14
"유치원",서린자연유치원,전라북도 전주시 완산구 난전들로 156-14 서린자연어린이집,전라북도 전주시 완산구 평화동3가 246-13,35.7819808,127.118512,전라북도 전주시,전주완산경찰서,N,,,2018-08-14
"유치원",서광유치원,전라북도 전주시 완산구 감나무3길 12-1 서광유치원,전라북도 전주시 완산구 서신동 197,35.8307143,127.1212174,전라북도 전주시,전주완산경찰서,Y,3,,2018-08-14
"유치원",서곡유치원,전라북도 전주시 완산구 서곡로 34 청솔아파트 103동,전라북도 전주시 완산구 효자동3가 1483-1,35.831921,127.0995582,전라북도 전주시,전주완산경찰서,Y,3,,2018-08-14
"유치원",새싹유치원,전라북도 전주시 완산구 양지3길 34-8 새싹유치원,전라북도 전주시 완산구 평화동2가 716-19,35.788308,127.120013,전라북도 전주시,전주완산경찰서,Y,2,,2018-08-14
"유치원",새봄유치원,전라북도 전주시 덕진구 초포다리로 50 새봄유치원,전라북도 전주시 덕진구 호성동1가 686-1,35.8604037,127.1595755,전라북도 전주시,전주덕진경찰서,Y,2,,2018-08-14
"유치원",상원리나유치원,전라북도 전주시 완산구 원서곡길 39 상원리나유치원,전라북도 전주시 완산구 효자동3가 745-4,35.8333622,127.0952806,전라북도 전주시,전주완산경찰서,N,,,2018-08-14
"유치원",상아유치원,전라북도 전주시 완산구 중앙반길 31-9 상아유치원,전라북도 전주시 완산구 삼천동3가 257,35.7940833,127.0857875,전라북도 전주시,전주완산경찰서,N,,,2018-08-14
"초등학교",우림초등학교,전라북도 전주시 완산구 소태정로 21 전주우림초등학교,전라북도 전주시 완산구 효자동2가 1157-6,35.806415,127.0982719,전라북도 전주시,전주완산경찰서,Y,5,,2018-08-14
"초등학교",우전초등학교,전라북도 전주시 완산구 쑥고개로 375-28 우전중학교,전라북도 전주시 완산구 효자동2가 189,35.8054049,127.1067223,전라북도 전주시,전주완산경찰서,Y,2,,2018-08-14
"초등학교",문정초등학교,전라북도 전주시 완산구 구이로 1979 전주문정초등학교,전라북도 전주시 완산구 평화동3가 226,35.7751606,127.127392,전라북도 전주시,전주완산경찰서,Y,3,,2018-08-14
"초등학교",대성초등학교,전라북도 전주시 완산구 고덕산1길 20 전주대성초등학교,전라북도 전주시 완산구 대성동 45,35.7975438,127.177838,전라북도 전주시,전주완산경찰서,Y,3,,2018-08-14
"초등학교",완산초등학교,전라북도 전주시 완산구 매곡로 22 전주완산초등학교,전라북도 전주시 완산구 동완산동2가167,35.810075,127.143950,전라북도 전주시,전주완산경찰서,Y,7,,2018-08-14
"초등학교",효문초등학교,전라북도 전주시 완산구 거마평로 105 효문초등학교,전라북도 전주시 완산구 효자동1가 651-1,35.8020186,127.116114,전라북도 전주시,전주완산경찰서,Y,3,,2018-08-14
"초등학교",평화초등학교,전라북도 전주시 완산구 꽃밭정로 65 전주평화초등학교,전라북도 전주시 완산구 평화동1가 389,35.799375,127.1393670,전라북도 전주시,전주완산경찰서,Y,2,,2018-08-14
"초등학교",화산초등학교,전라북도 전주시 완산구 따박골7길 20 전주화산초등학교,전라북도 전주시 완산구 중화산동 2가 46-25,35.809509,127.1294172,전라북도 전주시,전주완산경찰서,Y,6,,2018-08-14
"초등학교",서신초등학교,전라북도 전주시 완산구 전룡로 119 전주서신초등학교,전라북도 전주시 완산구 서신동 31,35.8296352,127.1248128,전라북도 전주시,전주완산경찰서,Y,7,,2018-08-14
"초등학교",전주초등학교,전라북도 전주시 완산구 대동로 33 전주초등학교,전라북도 전주시 완산구 태평동 1가 64,35.8225941,127.1398567,전라북도 전주시,전주완산경찰서,Y,5,,2018-08-14
"초등학교",중앙초등학교,전라북도 전주시 완산구 경기전길 99 전주중앙초등학교,전라북도 전주시 완산구 풍남동3가 67-3,35.8151016,127.1514063,전라북도 전주시,전주완산경찰서,Y,6,,2018-08-14
"유치원",전주삼천남초병설유치원,전라북도 전주시 완산구 거마남로 65 전주삼천남초병설유치원,전라북도 전주시 완산구 삼천동1가 635,35.795941,127.1235105,전라북도 전주시,전주완산경찰서,Y,2,,2018-08-14
"유치원",전주남초병설유치원,전라북도 전주시 완산구 장승배기로 376 전주남초병설유치원,전라북도 전주시 완산구 서서학동277,35.8034667,127.1507875,전라북도 전주시,전주완산경찰서,Y,2,,2018-08-14
"유치원",전주온샘,전라북도 전주시 덕진구 심방죽로 24 전주온샘유치원,전라북도 전주시 덕진구 인후동1가 575-1,35.8394088,127.1526047,전라북도 전주시,전주완산경찰서,Y,1,,2018-08-14
"유치원",아이들세상유치원,전라북도 전주시 덕진구 무삼지1길 14-1 아이들세상유치원,전라북도 전주시 덕진구 인후동1가 905-7,35.8251692,127.162011,전라북도 전주시,전주덕진경찰서,Y,1,,2018-08-14
"유치원",동산원광유치원,전라북도 전주시 덕진구 쪽구름로 106 동산원광유치원,전라북도 전주시 덕진구 반월동 242-1,35.874129,127.0738434,전라북도 전주시,전주덕진경찰서,Y,3,,2018-08-14
"초등학교",홍산초등학교,전라북도 전주시 완산구 마전들로 30 홍산초교등학교,전라북도 전주시 완산구 효자동3가 1685,35.8203704,127.0986877,전라북도 전주시,전주완산경찰서,Y,2,,2018-08-14
"초등학교",온빛초등학교,전라북도 전주시 덕진구 틀못3길 7 온빛초등학교,전라북도 전주시 덕진구 장동 1066,35.8424462,127.0567035,전라북도 전주시,전주덕진경찰서,Y,4,,2018-08-14
"어린이집",동트는어린이집,전라북도 전주시 완산구 서곡로 20-1 동트는어린이집,전라북도 전주시 완산구 효자동3가 1483-2,35.8315555,127.0982695,전라북도 전주시,전주완산경찰서,N,,,2018-08-14
"유치원",효자초등학교병설유치원,전라북도 전주시 완산구 송정로 47 전주효자초등학교,전라북도 전주시 완산구 효자동2가 567,35.8031333,127.1231639,전라북도 전주시,전주완산경찰서,Y,2,,2018-08-14
"유치원",효원유치원,전라북도 전주시 완산구 화산천변6길 17 아트빌어린이집,전라북도 전주시 완산구 중화산2가 818-10,35.8212371,127.1144121,전라북도 전주시,전주완산경찰서,Y,2,,2018-08-14
"유치원",효문초등학교병설유치원,전라북도 전주시 완산구 거마평로 105 전주효문초등학교병설유치원,전라북도 전주시 완산구 효자동1가 651-1,35.8019833,127.116025,전라북도 전주시,전주완산경찰서,Y,2,,2018-08-14
"유치원",활짝핀유치원,전라북도 전주시 완산구 중화산로 55-30 활짝필유치원,전라북도 전주시 완산구 중화산동 2가 401-3,35.8163861,127.1168656,전라북도 전주시,전주완산경찰서,N,,,2018-08-14
"유치원",화산초등학교병설유치원,전라북도 전주시 완산구 따박골7길 20 전주화산초등학교,전라북도 전주시 완산구 중화산동 2가 46-25,35.8094667,127.1291625,전라북도 전주시,전주완산경찰서,Y,2,,2018-08-14
"유치원",홍산초등학교병설유치원,전라북도 전주시 완산구 마전들로 30 홍산초교병설유치원,전라북도 전주시 완산구 효자동3가 1685,35.8203704,127.0986877,전라북도 전주시,전주완산경찰서,N,,,2018-08-14
"유치원",호반유치원,전라북도 전주시 완산구 한절길 22 호반유치원,전라북도 전주시 완산구 효자동2가 753-11,35.8023758,127.0955408,전라북도 전주시,전주완산경찰서,Y,2,,2018-08-14
"유치원",호남유치원,전라북도 전주시 완산구 삼산길 26 호남유치원,전라북도 전주시 완산구 삼천동3가 444,35.7996178,127.0804096,전라북도 전주시,전주완산경찰서,N,,,2018-08-14
"유치원",혜화유치원,전라북도 전주시 완산구 고사평8길 12 혜화유치원,전라북도 전주시 완산구 서신동 929-1,35.8364198,127.1112807,전라북도 전주시,전주완산경찰서,N,,,2018-08-14
"유치원",동파유치원,전라북도 전주시 덕진구 안골3길 20 동파유치원,전라북도 전주시 덕진구 인후동1가 760-1,35.8405305,127.1572137,전라북도 전주시,전주덕진경찰서,Y,6,,2018-08-14
"유치원",동신초등학교병설유치원,전라북도 전주시 덕진구 우아9길 1 전주동신초등학교병설유치원,전라북도 전주시 덕진구 우아동3가 743-149,35.8516404,127.155925,전라북도 전주시,전주덕진경찰서,Y,10,,2018-08-14
"유치원",동산유치원,전라북도 전주시 덕진구 쪽구름로 70 동산유치원,전라북도 전주시 덕진구 동산동 691-2,35.8723463,127.0772336,전라북도 전주시,전주덕진경찰서,Y,3,,2018-08-14
"유치원",동부유치원,전라북도 전주시 덕진구 권삼득로 88 동부유치원,전라북도 전주시 덕진구 진북1동 322-202,35.8291167,127.145675,전라북도 전주시,전주덕진경찰서,Y,3,,2018-08-14
"유치원",덕진초등학교병설유치원,전라북도 전주시 덕진구 들사평로 61 전주덕진초등학교병설유치원,전라북도 전주시 덕진구 덕진동1가 1272-2,35.841492,127.124691,전라북도 전주시,전주덕진경찰서,Y,8,,2018-08-14
"유치원",덕일초등학교병설유치원,전라북도 전주시 덕진구 하가로 71 전주덕일초등학교병설유치원,전라북도 전주시 덕진구 덕진동2가 99-1,35.8488237,127.1121699,전라북도 전주시,전주덕진경찰서,Y,6,,2018-08-14
"유치원",덕일성유치원,전라북도 전주시 덕진구  가리내로 384 덕일성유치원,전라북도 전주시 덕진구 덕진동2가 616-1,35.8484789,127.1107554,전라북도 전주시,전주덕진경찰서,N,,,2018-08-14
"유치원",대정초등학교병설유치원,전라북도 전주시 완산구  맏내로 57 전주대정초등학교병설유치원,전라북도 전주시 완산구 평화동2가 459,35.7863366,127.1246942,전라북도 전주시,전주완산경찰서,Y,3,,2018-08-14
"유치원",대성초등학교병설유치원,전라북도 전주시 완산구 고덕산1길 20 전주대성초등학교병설유치원,전라북도 전주시 완산구 대성동 45,35.7974966,127.1780059,전라북도 전주시,전주완산경찰서,Y,3,,2018-08-14
"유치원",다솜유치원,전라북도 전주시 완산구 하거마3길 25 다솜유치원,전라북도 전주시 완산구 삼천동1가 672,35.7942167,127.118175,전라북도 전주시,전주완산경찰서,Y,3,,2018-08-14
"유치원",다솔유치원,전라북도 전주시 완산구 거마평로 125 상산타운 다솔유치원,전라북도 전주시 완산구 효자동1가 652,35.8034342,127.1149146,전라북도 전주시,전주완산경찰서,Y,3,,2018-08-14
"유치원",다다예술유치원,전라북도 전주시 덕진구 신방죽2길 13 다다예술유치원,전라북도 전주시 덕진구 인후동1가 575-8,35.8379237,127.1526375,전라북도 전주시,전주덕진경찰서,N,,,2018-08-14
"유치원",꿈을담는유치원,전라북도 전주시 덕진구 가재미4길 5 꿈을담는유치원,전라북도 전주시 덕진구 인후동1가 874-3,35.8296483,127.1624681,전라북도 전주시,전주덕진경찰서,Y,3,,2018-08-14
"유치원",기린초등학교병설유치원,전라북도 전주시 덕진구 견훤로 240 기린초등학교병설유치원,전라북도 전주시 덕진구 인후동1가 431-3,35.8347475,127.1586335,전라북도 전주시,전주덕진경찰서,Y,3,,2018-08-14
"유치원",금평초등학교병설유치원,전라북도 전주시 덕진구 명주3길 16 금평초등학교,전라북도 전주시 덕진구 인후동2가 1536,35.8439083,127.1469139,전라북도 전주시,전주덕진경찰서,Y,12,,2018-08-14
"유치원",그린유치원,전라북도 전주시 덕진구 용신길 19 그린유치원,전라북도 전주시 덕진구 용정동?983,35.8757552,127.0612828,전라북도 전주시,전주덕진경찰서,Y,3,,2018-08-14
"유치원",가나유치원,전라북도 전주시 덕진구 안덕원1길 39 가나유치원,전라북도 전주시 덕진구 우아동3가 435-1,35.840039,127.1656754,전라북도 전주시,전주덕진경찰서,Y,2,,2018-08-14
"특수학교",동암재활원,전라북도 전주시 완산구 천잠로 275 동암재활원,전라북도 전주시 완산구 효자동3가 1215-5,35.8104832,127.0928581,전라북도 전주시,전주완산경찰서,Y,3,,2018-08-14
"특수학교",전주은화학교,전라북도 전주시 완산구 효자로 28-20 전주은화학교,전라북도 전주시 완산구 효자동3가 1059-7,35.8190229,127.0866701,전라북도 전주시,전주완산경찰서,Y,3,,2018-08-14
"특수학교",전주선화학교,전라북도 전주시 완산구 효자로 39 전주선화학교,전라북도 전주시 완산구 효자동3가 1130,35.8205235,127.0902331,전라북도 전주시,전주완산경찰서,Y,3,,2018-08-14
"초등학교",문학초등학교,전라북도 전주시 완산구 문학로 30 전주문학초등학교,전라북도 전주시 완산구 효자동3가 1614,35.8281562,127.1025736,전라북도 전주시,전주완산경찰서,Y,11,,2018-08-14
"초등학교",만성초등학교,전라북도 전주시 완산구 중동로 32 전주만성초등학교,전라북도 전주시 완산구 중동 307,35.8366537,127.0653858,전라북도 전주시,전주완산경찰서,Y,6,,2018-08-14
"초등학교",삼천초등학교,전라북도 전주시 완산구 성지산로 38 전주삼천초등학교,전라북도 전주시 완산구 삼천동1가 585-1,35.8008292,127.1234816,전라북도 전주시,전주완산경찰서,Y,6,,2018-08-14
"초등학교",용와초등학교,전라북도 전주시 완산구 장승배기로 14 전주용와초등학교,전라북도 전주시 완산구 삼천동1가 305-6,35.7910257,127.1147071,전라북도 전주시,전주완산경찰서,Y,6,,2018-08-14
"초등학교",대정초등학교,전라북도 전주시 완산구 맏내로 57 대정초등학교,전라북도 전주시 완산구 평화동2가 459,35.7860822,127.1253757,전라북도 전주시,전주완산경찰서,Y,3,,2018-08-14
"초등학교",전주교대부설초등학교,전라북도 전주시 완산구 팔달로 74 전주교대부설초등학교,전라북도 전주시 완산구 서서학동 189,35.8083668,127.1511266,전라북도 전주시,전주완산경찰서,Y,8,,2018-08-14
"초등학교",중인초등학교,전라북도 전주시 완산구 중인1길 80 전주중인초등학교,전라북도 전주시 완산구 중인동 585,35.7710803,127.0975212,전라북도 전주시,전주완산경찰서,Y,2,,2018-08-14
"초등학교",효림초등학교,전라북도 전주시 완산구 강변로 128 효림초등학교,전라북도 전주시 완산구 효자동1가 659-2,35.803025,127.113175,전라북도 전주시,전주완산경찰서,Y,8,,2018-08-14
"유치원",햇살나라유치원,전라북도 전주시 덕진구 무삼지6길 7 햇살나라유치원,전라북도 전주시 덕진구 인후동1가 902-1,35.8278237,127.1639743,전라북도 전주시,전주덕진경찰서,N,,,2018-08-14
"유치원",해바라기유치원,전라북도 전주시 덕진구 전미로 37-9 해바라기유치원,전라북도 전주시 덕진구 송천동2가 681-5,35.8724518,127.1131046,전라북도 전주시,전주덕진경찰서,Y,2,,2018-08-14
"유치원",해럴드유치원,전라북도 전주시 덕진구 석소로 82 헤럴드유치원,전라북도 전주시 덕진구 우아동2가 561-4,35.8343271,127.1679307,전라북도 전주시,전주덕진경찰서,N,,,2018-08-14
"유치원",해뜰유치원,전라북도 전주시 완산구 원서곡길 54-3 해뜰유치원,전라북도 전주시 완산구 효자동3가 960,35.8322994,127.0935538,전라북도 전주시,전주완산경찰서,Y,1,,2018-08-14
"유치원",한솔유치원,전라북도 전주시 완산구 유연로 349-18 한솔유치원,전라북도 전주시 완산구 서신동 1001-5,35.826265,127.1244172,전라북도 전주시,전주완산경찰서,Y,2,,2018-08-14
"유치원",한샘유치원,전라북도 전주시 덕진구 초포로 228-9 한샘유칭원,전라북도 전주시 덕진구 호성동2가 482-3,35.873719,127.1464514,전라북도 전주시,전주덕진경찰서,N,,,2018-08-14
"유치원",한들초등학교병설유치원,전라북도 전주시 완산구 화산천변8길 10 한들초등학교병설유치원,전라북도 전주시 완산구 중화산동2가 752-4,35.8212333,127.1171375,전라북도 전주시,전주완산경찰서,Y,2,,2018-08-14
"유치원",하버드유치원,전라북도 전주시 덕진구 오송1길 13-7 하버드유치원,전라북도 전주시 덕진구 송천동1가 107-85,35.863638,127.128145,전라북도 전주시,전주덕진경찰서,N,,,2018-08-14
"유치원",하나유치원,전라북도 전주시 덕진구 정여립로 1114-10 하나유치원,전라북도 전주시 덕진구 만성동 13,35.8477452,127.0850704,전라북도 전주시,전주덕진경찰서,N,,,2018-08-14
"유치원",하가정원유치원,전라북도 전주시 덕진구 하가1길 61 하가정원유치원,전라북도 전주시 덕진구 덕진동2가 248-17,35.844811,127.1123199,전라북도 전주시,전주덕진경찰서,N,,,2018-08-14
"유치원",프렌즈유치원,전라북도 전주시 완산구 평화14길 15-8 프렌즈유치원,전라북도 전주시 완산구 평화동2가 856-5,35.7921497,127.1343125,전라북도 전주시,전주완산경찰서,N,,,2018-08-14
"유치원",풍남초등학교병설유치원,전라북도 전주시 완산구 견훤왕궁로 16 풍남초등학교병설유치원,전라북도 전주시 완산구 남노송동 507-1,35.8220384,127.1537212,전라북도 전주시,전주완산경찰서,Y,2,,2018-08-14
"유치원",폴유치원,전라북도 전주시 완산구 평화2길 12 폴유치원,전라북도 전주시 완산구 평화동2가 96-3,35.7818211,127.1340799,전라북도 전주시,전주완산경찰서,Y,1,,2018-08-14
"유치원",평화초등학교병설유치원,전라북도 전주시 완산구 꽃밭정로 65 평화초등학교병설유치원,전라북도 전주시 완산구 평화동1가 389,35.799375,127.1393670,전라북도 전주시,전주완산경찰서,Y,2,,2018-08-14
"유치원",팔복초등학교병설유치원,전라북도 전주시 덕진구 팔과정로 181팔복초등학교병설유치원,전라북도 전주시 덕진구 동산동 374-1,35.863531,127.0948558,전라북도 전주시,전주덕진경찰서,Y,1,,2018-08-14
"유치원",큰동그라미유치원,전라북도 전주시 덕진구 무삼지로 32 인후 꿈마을 부영아파트,전라북도 전주시 덕진구 인후동1가 890-1,35.8285997,127.1647568,전라북도 전주시,전주덕진경찰서,Y,2,,2018-08-14
"유치원",크레용유치원,전라북도 전주시 완산구 신봉3길 17-9 크레용유치원,전라북도 전주시 완산구 효자동1가 603-4,35.811567,127.116463,전라북도 전주시,전주완산경찰서,Y,2,,2018-08-14
"유치원",코끼리유치원,전라북도 전주시 덕진구 매봉16길 9 코끼리유치원,전라북도 전주시 덕진구 금암동 1573-3,35.8380668,127.141526,전라북도 전주시,전주덕진경찰서,Y,3,,2018-08-14
"유치원",초포초등학교병설유치원,전라북도 전주시 덕진구 초포로 171 초포초등학교병설유치원,전라북도 전주시 덕진구 호성동2가 835,35.877015,127.139133,전라북도 전주시,전주덕진경찰서,Y,2,,2018-08-14
"유치원",초록빛유치원,전라북도 전주시 덕진구 천마산로 34 초록빛유치원,전라북도 전주시 덕진구 송천동1가 107-161,35.863638,127.125377,전라북도 전주시,전주덕진경찰서,N,,,2018-08-14
"유치원",청노루유치원,전라북도 전주시 완산구 안행5길 35 금호아파트 청노로유치원,전라북도 전주시 완산구 효자동1가 98,35.8042431,127.1310296,전라북도 전주시,전주완산경찰서,Y,3,,2018-08-14
"특수학교",유화학교,전라북도 전주시 덕진구 모래내6길 26-16 전주유화학교,전라북도 전주시 덕진구 인후동2가 26-7,35.8373171,127.1459554,전라북도 전주시,전주덕진경찰서,Y,3,,2018-08-14
"특수학교",자림원,전라북도 전주시 덕진구 번영로 230-14 자림원,전라북도 전주시 덕진구 성덕동 477,35.8748154,127.0339729,전라북도 전주시,전주덕진경찰서,N,,,2018-08-14
"어린이집",햇살나라어린이집,전라북도 전주시 덕진구 무삼지5길 6-3 햇살나라어린이집,전라북도 전주시 덕진구 인후동1가 903-4,35.827794,127.1645107,전라북도 전주시,전주덕진경찰서,Y,2,,2018-08-14
"어린이집",한빛어린이집,전라북도 전주시 덕진구 와룡로 109-13 한빛어린이집,전라북도 전주시 덕진구 송천동2가 608-5,35.8689105,127.1129547,전라북도 전주시,전주덕진경찰서,Y,3,,2018-08-14
"어린이집",팔복어린이집,전라북도 전주시 덕진구 신복7길 2-14 팔복어린이집,전라북도 전주시 덕진구 팔복동1가 273-2,35.8555071,127.104325,전라북도 전주시,전주덕진경찰서,Y,2,,2018-08-14
"어린이집",재능나라어린이집,전라북도 전주시 덕진구 원고랑2길 16 재능나라어린이집,전라북도 전주시 덕진구 고랑동 735,35.8742237,127.0846125,전라북도 전주시,전주덕진경찰서,Y,4,,2018-08-14
"어린이집",예일키즈어린이집,전라북도 전주시 덕진구 한배미5길 7 예일키즈,전라북도 전주시 덕진구 인후동1가 953-11,35.8236771,127.1676979,전라북도 전주시,전주덕진경찰서,Y,2,,2018-08-14
"초등학교",서문초등학교,전라북도 전주시 완산구 서신천변11길 19 전주서문초등학교,전라북도 전주시 완산구 서신동 820,35.8298333,127.1120125,전라북도 전주시,전주완산경찰서,Y,11,,2018-08-14
"초등학교",서곡초등학교,전라북도 전주시 완산구 서곡7길 30 전주서곡초등학교,전라북도 전주시 완산구 효자3가 1474??,35.8328964,127.099921,전라북도 전주시,전주완산경찰서,Y,7,,2018-08-14
"초등학교",여울초등학교,전라북도 전주시 완산구 고사평8길 11 여울초등학교,전라북도 전주시 완산구 서신동 923,35.8375216,127.1113931,전라북도 전주시,전주완산경찰서,Y,8,,2018-08-14
"초등학교",서일초등학교,전라북도 전주시 완산구 새터로 73 전주서일초등학교,전라북도 전주시 완산구 서신동 960-4,35.8364071,127.114975,전라북도 전주시,전주완산경찰서,Y,6,,2018-08-14
"초등학교",지곡초등학교,전라북도 전주시 완산구 평화로 85 전주지곡초등학교,전라북도 전주시 완산구 평화동2가 897-3,35.7842458,127.1328344,전라북도 전주시,전주완산경찰서,Y,9,,2018-08-14
"초등학교",용흥초등학교,전라북도 전주시 완산구 삼천천변1길 16 용흥초등학교,전라북도 전주시 완산구 삼천동1가 765-2,35.7947023,127.1123305,전라북도 전주시,전주완산경찰서,Y,6,,2018-08-14
"초등학교",한들초등학교,전라북도 전주시 완산구 화산천변8길 10 전주한들초등학교,전라북도 전주시 완산구 중화산동2가 752-4,35.821084,127.1171076,전라북도 전주시,전주완산경찰서,Y,5,,2018-08-14
"초등학교",완산서초등학교,전라북도 전주시 완산구 안행로 127 효정중학교,전라북도 전주시 완산구 서완산동 277-1,35.8070917,127.132875,전라북도 전주시,전주완산경찰서,Y,5,,2018-08-14
"초등학교",양지초등학교,전라북도 전주시 완산구 양지2길 11-26 양지초등학교,전라북도 전주시 완산구 평화2동 582,35.7924966,127.1259578,전라북도 전주시,전주완산경찰서,Y,2,,2018-08-14
"초등학교",전주남초등학교,전라북도 전주시 완산구 장승배기로 376 전주남초등학교,전라북도 전주시 완산구 서서학동 277,35.8034667,127.1507875,전라북도 전주시,전주완산경찰서,Y,5,,2018-08-14
"초등학교",삼천남초등학교,전라북도 전주시 완산구 거마남로 65 전주삼천남초등학교,전라북도 전주시 완산구 삼천동1가 산131-1,35.7961882,127.1234408,전라북도 전주시,전주완산경찰서,Y,8,,2018-08-14
"초등학교",효자초등학교,전라북도 전주시 완산구 송정로 11-16 전주효자초등학교,전라북도 전주시 완산구 효자동2가 567,35.8033401,127.1225803,전라북도 전주시,전주완산경찰서,Y,6,,2018-08-14
"초등학교",전주동초등학교,전라북도 전주시 완산구 물왕멀로 72 전주동초등학교,전라북도 전주시 완산구 중노송동2가 399-1,35.8296233,127.152227,전라북도 전주시,전주완산경찰서,Y,4,,2018-08-14
"초등학교",신성초등학교,전라북도 전주시 완산구 평화8길 16-36 전주신성초등학교,전라북도 전주시 완산구 평화동2가 23-57,35.7904033,127.1343172,전라북도 전주시,전주완산경찰서,Y,8,,2018-08-14
"어린이집",아이들세상어린이집,전라북도 전주시 덕진구 무삼지1길 14-3 아이들세상유치원,전라북도 전주시 덕진구 인후동1가 905-6,35.8253371,127.162011,전라북도 전주시,전주덕진경찰서,Y,1,,2018-08-14
"어린이집",아기별어린이집,전라북도 전주시 덕진구 무삼지5길 18 아기별어린이집,전라북도 전주시 덕진구 인후동1가 901-3,35.8273405,127.1635884,전라북도 전주시,전주덕진경찰서,Y,3,,2018-08-14
"어린이집",신세계어린이집,전라북도 전주시 덕진구 아중6길 24-4 신세계어린이집,전라북도 전주시 덕진구 우아동2가 895-5,35.8329528,127.1715942,전라북도 전주시,전주덕진경찰서,N,,,2018-08-14
"어린이집",사랑어린이집,전라북도 전주시 덕진구 덕용1길 53-3 사랑어린이집,전라북도 전주시 덕진구 동산동 599-1,35.871021,127.080942,전라북도 전주시,전주덕진경찰서,Y,1,,2018-08-14
"어린이집",동현어린이집,전라북도 전주시 덕진구 명주1길 31-5 동현어린이집,전라북도 전주시 덕진구 인후동2가 1543-19,35.8413654,127.1466706,전라북도 전주시,전주덕진경찰서,Y,2,,2018-08-14
"어린이집",동심어린이집,전라북도 전주시 덕진구 원고랑1길 13 동심어린이집,전라북도 전주시 덕진구 고랑동 726-1,35.8735321,127.085975,전라북도 전주시,전주덕진경찰서,Y,2,,2018-08-14
"어린이집",더조은어린이집,전라북도 전주시 덕진구 솔내5길 18 더조은어린이집,전라북도 전주시 덕진구 송천동1가 393-10,35.8570659,127.1224081,전라북도 전주시,전주덕진경찰서,Y,5,,2018-08-14
"어린이집",해바라기어린이집,전라북도 전주시 덕진구 가리내로 590 해바라기어린이집,전라북도 전주시 덕진구 송천동1가 742,35.8612028,127.1088428,전라북도 전주시,전주덕진경찰서,N,,,2018-08-14
"어린이집",파란나라어린이집,전라북도 전주시 덕진구 원산정길 22 파란나라어린이집,전라북도 전주시 덕진구 산정동 290-2,35.8429388,127.1721122,전라북도 전주시,전주덕진경찰서,N,,,2018-08-14
"어린이집",정선어린이집,전라북도 전주시 덕진구 안골4길 20 정선어린이집,전라북도 전주시 덕진구 인후동1가 753-1,35.8416054,127.1568512,전라북도 전주시,전주덕진경찰서,Y,1,,2018-08-14
"어린이집",예대어린이집,전라북도 전주시 덕진구 시천로 29-27 예대어린이집,전라북도 전주시 덕진구 송천동1가 616,35.8602237,127.113575,전라북도 전주시,전주덕진경찰서,Y,3,,2018-08-14
"어린이집",엘프어린이집,전라북도 전주시 덕진구 오송1길 17 엘프어린이집,전라북도 전주시 덕진구 송천동1가 107-144,35.8632029,127.1286533,전라북도 전주시,전주덕진경찰서,N,,,2018-08-14
"유치원",청강유치원,전라북도 전주시 완산구 인봉남로 18-2 청강유치원,전라북도 전주시 완산구 중노송동 457-7,35.8255489,127.1547143,전라북도 전주시,전주완산경찰서,Y,1,,2018-08-14
"유치원",천사유치원,전라북도 전주시 완산구 용머리로 194 천사유치원,전라북도 전주시 완산구 효자동1가 133,35.8071776,127.132488,전라북도 전주시,전주완산경찰서,N,,,2018-08-14
"유치원",천사나라유치원,전라북도 전주시 완산구 외칠봉1길 11 천사나라유치원,전라북도 전주시 완산구 효자동1가 698-9,35.802961,127.1366458,전라북도 전주시,전주완산경찰서,Y,2,,2018-08-14
"유치원",즐거운솔빛유치원,전라북도 전주시 덕진구 솔내1길 16 호반유치원,전라북도 전주시 덕진구 송천동1가 252-2,35.8526365,127.1217346,전라북도 전주시,전주덕진경찰서,Y,2,,2018-08-14
"유치원",중인초등학교병설유치원,전라북도 전주시 완산구 중인1길 80 전주중인초등학교,전라북도 전주시 완산구 중인동 585,35.7709718,127.0973303,전라북도 전주시,전주완산경찰서,Y,1,,2018-08-14
"유치원",중앙초등학교병설유치원,전라북도 전주시 완산구 경기전길 99 중앙초등학교병설유치원,전라북도 전주시 완산구 풍남동3가 67-3,35.814875,127.151375,전라북도 전주시,전주완산경찰서,Y,2,,2018-08-14
"유치원",제이그림나라유치원,전라북도 전주시 덕진구 와룡로 58-3 제이그림나라유치원,전라북도 전주시 덕진구 송천동2가 556-9,35.8648942,127.1124423,전라북도 전주시,전주덕진경찰서,Y,3,,2018-08-14
"유치원",전주초등학교병설유치원,전라북도 전주시 완산구 대동로 33 전주초등학교,전라북도 전주시 완산구 태평동1가 64,35.8223449,127.1399546,전라북도 전주시,전주완산경찰서,Y,2,,2018-08-14
"유치원",전주송림유치원,전라북도 전주시 완산구 전룡3길 8-5 송림유치원,전라북도 전주시 완산구 서신동 886-1,35.8262232,127.1186553,전라북도 전주시,전주완산경찰서,Y,3,,2018-08-14
"유치원",전주기전대부설유치원,전라북도 전주시 완산구 호동길 69-23(삼천동 3가) 전주기전대부설유치원,전라북도 전주시 완산구 삼천동3가 603-3,35.7890601,127.0834198,전라북도 전주시,전주완산경찰서,N,,,2018-08-14
"유치원",장동초등학교병설유치원,전라북도 전주시 덕진구 원장동안길 73 장동초등학교병설유치원,전라북도 전주시 덕진구 장동 258-2,35.8495904,127.060105206,전라북도 전주시,전주덕진경찰서,Y,2,,2018-08-14
"유치원",인후초등학교병설유치원,전라북도 전주시 덕진구 무삼지로 67 인후초등학교,전라북도 전주시 덕진구 인후동3가 160,35.8316583,127.1624875,전라북도 전주시,전주덕진경찰서,Y,2,,2018-08-14
"유치원",인후유치원,전라북도 전주시 덕진구 건산로 213-16 인후유치원,전라북도 전주시 덕진구 인후동1가 403-1,35.8351727,127.161376,전라북도 전주시,전주덕진경찰서,Y,2,,2018-08-14
"유치원",이화유치원,전라북도 전주시 완산구 서곡2길 13-6 이화유치원,전라북도 전주시 완산구 효자동3가 1443-1,35.8344635,127.1026441,전라북도 전주시,전주완산경찰서,Y,2,,2018-08-14
"유치원",이튼유치원,전라북도 전주시 덕진구 틀못1길 6-7 이튼유치원,전라북도 전주시 덕진구 장동 1068-3,35.8416273,127.0573468,전라북도 전주시,전주덕진경찰서,Y,4,,2018-08-14
"유치원",유레카유치원,전라북도 전주시 완산구 전룡4길 12-4 유레카어린이집,전라북도 전주시 완산구 서신동 893-1,35.8264149,127.1198676,전라북도 전주시,전주완산경찰서,N,,,2018-08-14
"유치원",원동초등학교병설유치원,전라북도 전주시 덕진구 원동로 3 전주원동초등학교,전라북도 전주시 덕진구 원동 361-1,35.8511321,127.033475,전라북도 전주시,전주덕진경찰서,Y,2,,2018-08-14
"초등학교",전주새연초등학교,전라북도 전주시 완산구 봉곡로 60 전주새연초등학교,전라북도 전주시 완산구 효자동2가 1314-5,35.811629,127.100448,전라북도 전주시,전주완산경찰서,N,,,2018-08-14
"초등학교",전주화정초등학교,전라북도 전주시 덕진구 세병로 55 전주화정초등학교,전라북도 전주시 덕진구 송천동2가 1310,35.873026,127.131441,전라북도 전주시,전주덕진경찰서,N,,,2018-08-14
"초등학교",전주하가초등학교,전라북도 전주시 덕진구 경동로 11 전주하가초등학교,전라북도 전주시 덕진구 덕진동2가 685,35.843711,127.107006,전라북도 전주시,전주덕진경찰서,Y,1,,2018-08-14
"유치원",하가초등학교병설유치원,전라북도 전주시 덕진구 경동로 11 하가초등학교병설유치원,전라북도 전주시 덕진구 덕진동2가 685,35.843711,127.107006,전라북도 전주시,전주덕진경찰서,Y,1,,2018-08-14
"유치원",전주아름유치원,전라북도 전주시 덕진구 정여립로 874 전주아름유치원,전라북도 전주시 덕진구 만성동 832,35.830038,127.072049,전라북도 전주시,전주덕진경찰서,N,,,2018-08-14
