"시설종류",대상시설명,소재지도로명주소,소재지지번주소,위도,경도,관리기관명,관할경찰서명,CCTV설치여부,CCTV설치대수,보호구역도로폭,데이터기준일자
"유치원",장산초등학교 병설유치원,전라남도 신안군 장산면 장산로 277,전라남도 신안군 장산면 대리 93-1,34.6381596443,126.1442563,전라남도 신안군청,목포경찰서,Y,6,3,2019-07-01
"초등학교",장산초등학교,전라남도 신안군 장산면 장산로 277,전라남도 신안군 장산면 대리 93-1,34.6381596443,126.1442563,전라남도 신안군청,목포경찰서,Y,6,3,2019-07-01
"유치원",신의초등학교 병설유치원,전라남도 신안군 신의면 신의로 710-57,전라남도 신안군 신의면 상태동리 29-5,34.5833838939,126.0958193691,전라남도 신안군청,목포경찰서,N,0,4,2019-07-01
"초등학교",신의초등학교,전라남도 신안군 신의면 신의로 710-57,전라남도 신안군 신의면 상태동리 29-5,34.5833838939,126.0958193691,전라남도 신안군청,목포경찰서,N,0,4,2019-07-01
"유치원",비금초등학교 병설유치원,전라남도 신안군 비금면 유옥우길 21-4,전라남도 신안군 비금면 신원리 93,34.7605830678,125.9209392338,전라남도 신안군청,목포경찰서,N,0,4,2019-07-01
"초등학교",비금초등학교,전라남도 신안군 비금면 유옥우길 21-4,전라남도 신안군 비금면 신원리 93,34.7605830678,125.9209392338,전라남도 신안군청,목포경찰서,N,0,4,2019-07-01
"유치원",팔금초등학교병설유치원,전라남도 신안군 팔금면 삼층석탑길 173,전라남도 신안군 팔금면 읍리 699,34.7862911,126.1452461,전라남도 신안군청,목포경찰서,Y,6,6.5,2019-07-01
"초등학교",팔금초등학교,전라남도 신안군 팔금면 삼층석탑길 173,전라남도 신안군 팔금면 읍리 699,34.7862911,126.1452461,전라남도 신안군청,목포경찰서,Y,6,6.5,2019-07-01
"유치원",흑산초등학교 병설유치원,전라남도 신안군 흑산면 진마을길 12-13,전라남도 신안군 흑산면 진리 477,34.6844376132,125.4276439932,전라남도 신안군청,목포경찰서,Y,6,3,2019-07-01
"초등학교",흑산초등학교,전라남도 신안군 흑산면 진마을길 12-13,전라남도 신안군 흑산면 진리 477,34.6844376132,125.4276439932,전라남도 신안군청,목포경찰서,Y,6,3,2019-07-01
"유치원",자은초등학교 병설유치원,전라남도 신안군 자은면 구영1길44-36,전라남도 신안군 자은면 구영리 44,34.8907313682,126.0468918971,전라남도 신안군청,목포경찰서,Y,6,6.5,2019-07-01
"초등학교",자은초등학교,전라남도 신안군 자은면 구영1길44-36,전라남도 신안군 자은면 구영리 44,34.8907313682,126.0468918971,전라남도 신안군청,목포경찰서,Y,6,6.5,2019-07-01
"유치원",지도초등학교 병설유치원,전라남도 신안군 지도읍 서촌길 52-1,전라남도 신안군 지도읍 읍내리 93,35.0637424638,126.2071855627,전라남도 신안군청,목포경찰서,Y,6,3.25,2019-07-01
"초등학교",지도초등학교,전라남도 신안군 지도읍 서촌길 52-1,전라남도 신안군 지도읍 읍내리 93,35.0637424638,126.2071855627,전라남도 신안군청,목포경찰서,Y,6,3.25,2019-07-01
"유치원",안좌초등학교 병설유치원,전라남도 신안군 안좌면 김환기길 6,전라남도 신안군 안좌면 읍동리 1014,34.7545297133,126.1239608922,전라남도 신안군청,목포경찰서,Y,3,6.5,2019-07-01
"초등학교",안좌초등학교,전라남도 신안군 안좌면 김환기길 6,전라남도 신안군 안좌면 읍동리 1014,34.7545297133,126.1239608922,전라남도 신안군청,목포경찰서,Y,3,6.5,2019-07-01
"유치원",도초초등학교 병설유치원,전라남도 신안군 도초면 서남문로 1698,전라남도 신안군 도초면 수항리 620,34.6902875299,125.9633424596,전라남도 신안군청,목포경찰서,Y,4,6.5,2019-07-01
"초등학교",도초초등학교,전라남도 신안군 도초면 서남문로 1698,전라남도 신안군 도초면 수항리 620,34.6902875299,125.9633424596,전라남도 신안군청,목포경찰서,Y,4,6.5,2019-07-01
"유치원",하의초등학교 병설유치원,전라남도 신안군 하의면 안곰실길33,전라남도 신안군 하의면 웅곡리 166-2,34.6003973,126.0359455192,전라남도 신안군청,목포경찰서,Y,3,6.5,2019-07-01
"초등학교",하의초등학교,전라남도 신안군 하의면 안곰실길33,전라남도 신안군 하의면 웅곡리 166-2,34.6003973,126.0359455192,전라남도 신안군청,목포경찰서,Y,3,6.5,2019-07-01
"유치원",증도초등학교 병설유치원,전라남도 신안군 증도면 문중경길 218,전라남도 신안군 증도면 증동리 1812-2,35.0022003,126.1364573867,전라남도 신안군청,목포경찰서,Y,2,6.5,2019-07-01
"초등학교",증도초등학교,전라남도 신안군 증도면 문중경길 218,전라남도 신안군 증도면 증동리 1812-2,35.0022003,126.1364573867,전라남도 신안군청,목포경찰서,Y,2,6.5,2019-07-01
"유치원",임자초등학교 병설유치원,전라남도 신안군 임자면 임자로 216-4,전라남도 신안군 임자면 대기리 348,35.0902558986,126.1016557471,전라남도 신안군청,목포경찰서,Y,3,8,2019-07-01
"초등학교",임자초등학교,전라남도 신안군 임자면 임자로 216-4,전라남도 신안군 임자면 대기리 348,35.0902558986,126.1016557471,전라남도 신안군청,목포경찰서,Y,3,8,2019-07-01
"유치원",압해서초등학교 병설유치원,전라남도 신안군 압해읍 압해로 1336-2,전라남도 신안군 압해읍 대천리 659-1,34.8625649888,126.2733357026,전라남도 신안군청,목포경찰서,Y,3,8,2019-07-01
"초등학교",압해서초등학교,전라남도 신안군 압해읍 압해로 1336-2,전라남도 신안군 압해읍 대천리 659-1,34.8625649888,126.2733357026,전라남도 신안군청,목포경찰서,Y,3,8,2019-07-01
"유치원",압해동초등학교 병설유치원,전라남도 신안군 압해읍 압해로 378-6,전라남도 신안군 압해읍 신장리 518-1,34.8412478668,126.3549562640,전라남도 신안군청,목포경찰서,Y,3,6,2019-07-01
"초등학교",압해동초등학교,전라남도 신안군 압해읍 압해로 378-6,전라남도 신안군 압해읍 신장리 518-1,34.8412478668,126.3549562640,전라남도 신안군청,목포경찰서,Y,3,6,2019-07-01
"유치원",압해초등학교 병설유치원,전라남도 신안군 압해읍 복룡로 33-8,전라남도 신안군 압해읍 동서리 191,34.8675412044,126.3086866033,전라남도 신안군청,목포경찰서,Y,6,7,2019-07-01
"초등학교",압해초등학교,전라남도 신안군 압해읍 복룡로 33-8,전라남도 신안군 압해읍 동서리 191,34.8675412044,126.3086866033,전라남도 신안군청,목포경찰서,Y,6,7,2019-07-01
